{
  "_comment": "Справочник гидрологических постов Казгидромета — Алматинская область. Источник: ecodata.kz:3838/app_dg_map_ru/ (Shiny Leaflet). Координаты верифицированы 2026-04-20 из реальных маркеров карты.",
  "source": "verified 2026-04-20 — координаты и имена из window.Shiny.shinyapp.$values.map.x.calls[addAwesomeMarkers]",
  "version": 3,
  "hydroposts": [
    {
      "post_id": "kaskelyen-ustye",
      "kazhydromet_name": "Р.Каскелен - устье",
      "name": "р. Каскелен — устье",
      "water_body": "река Каскелен",
      "lat": 43.7219,
      "lng": 77.0717,
      "type": "river",
      "parameters": [
        "water_temp",
        "water_level",
        "flow"
      ],
      "update_schedule": "daily",
      "verified": true,
      "danger_level_cm": 220
    },
    {
      "post_id": "kapchagai-vdhr-kapshagai",
      "kazhydromet_name": "Вдхр. Капшагайское – г. Капшагай",
      "name": "Вдхр. Капшагайское — г. Капшагай",
      "water_body": "Капшагайское водохранилище",
      "lat": 43.8867,
      "lng": 77.1103,
      "type": "reservoir",
      "parameters": [
        "water_temp",
        "water_level"
      ],
      "update_schedule": "daily",
      "verified": true,
      "danger_level_cm": 1150
    },
    {
      "post_id": "kapchagai-vdhr-karashoki",
      "kazhydromet_name": "Вдхр. Капшагайское – МС Карашокы",
      "name": "Вдхр. Капшагайское — МС Карашокы",
      "water_body": "Капшагайское водохранилище",
      "lat": 43.8416,
      "lng": 77.8515,
      "type": "reservoir",
      "parameters": [
        "water_temp",
        "water_level"
      ],
      "update_schedule": "daily",
      "verified": true,
      "danger_level_cm": 1150
    },
    {
      "post_id": "kurti-leninski-most",
      "kazhydromet_name": "Р. Курты – база клх. им. Ленина (Ленинский мост)",
      "name": "р. Курты — Ленинский мост",
      "water_body": "река Курты",
      "lat": 43.6864,
      "lng": 76.3104,
      "type": "river",
      "parameters": [
        "water_temp",
        "water_level",
        "flow"
      ],
      "update_schedule": "daily",
      "verified": true,
      "danger_level_cm": 461
    },
    {
      "post_id": "ili-kapchagai-uroch",
      "kazhydromet_name": "Р. Иле - уроч. Капчагай",
      "name": "р. Или — уроч. Капчагай",
      "water_body": "река Или",
      "lat": 44.1321,
      "lng": 76.9855,
      "type": "river",
      "parameters": [
        "water_temp",
        "water_level",
        "flow"
      ],
      "update_schedule": "daily",
      "verified": true,
      "danger_level_cm": 501
    },
    {
      "post_id": "ili-ushzharma",
      "kazhydromet_name": "Р. Иле- с. Ушжарма",
      "name": "р. Или — с. Ушжарма",
      "water_body": "река Или",
      "lat": 44.9561,
      "lng": 75.8038,
      "type": "river",
      "parameters": [
        "water_temp",
        "water_level"
      ],
      "update_schedule": "daily",
      "verified": true,
      "danger_level_cm": 376
    },
    {
      "post_id": "ili-suminka-6km",
      "kazhydromet_name": "Р. Иле, пр. Суминка - 6 км ниже истока",
      "name": "р. Или, пр. Суминка — 6 км ниже истока",
      "water_body": "река Или (проток Суминка)",
      "lat": 44.302,
      "lng": 77.891,
      "type": "river",
      "parameters": [
        "water_temp",
        "water_level"
      ],
      "update_schedule": "daily",
      "verified": false,
      "notes": "Координаты уточняются"
    },
    {
      "post_id": "ili-nizhe-zhideli-1km",
      "kazhydromet_name": "Р. Иле –1 км ниже ответвления рук. Жидели",
      "name": "р. Или — 1 км ниже отв. рук. Жидели",
      "water_body": "река Или",
      "lat": 45.0704,
      "lng": 75.41,
      "type": "river",
      "parameters": [
        "water_temp",
        "water_level"
      ],
      "update_schedule": "daily",
      "verified": true,
      "danger_level_cm": 328
    },
    {
      "post_id": "ili-zhideli-16km",
      "kazhydromet_name": "Р. Иле. рук. Жидели – 16 км ниже истока",
      "name": "р. Или, рук. Жидели — 16 км ниже истока",
      "water_body": "река Или (рукав Жидели)",
      "lat": 44.463,
      "lng": 78.374,
      "type": "river",
      "parameters": [
        "water_temp",
        "water_level"
      ],
      "update_schedule": "daily",
      "verified": false,
      "notes": "Координаты уточняются"
    }
  ],
  "default_mapping": {
    "_comment": "Явная привязка ключевых локаций Omut к гидропостам.",
    "kapchagay": {
      "lat": 43.8867,
      "lng": 77.1103,
      "hydropost_id": "kapchagai-vdhr-kapshagai",
      "station_id": 149
    },
    "kapchagay-karashoki": {
      "lat": 43.8416,
      "lng": 77.8515,
      "hydropost_id": "kapchagai-vdhr-karashoki",
      "station_id": 149
    },
    "ili": {
      "lat": 44.1321,
      "lng": 76.9855,
      "hydropost_id": "ili-kapchagai-uroch",
      "station_id": 149
    },
    "ili-downstream": {
      "lat": 44.9561,
      "lng": 75.8038,
      "hydropost_id": "ili-ushzharma",
      "station_id": 149
    },
    "kurti": {
      "lat": 43.6864,
      "lng": 76.3104,
      "hydropost_id": "kurti-leninski-most",
      "station_id": 149
    },
    "kaskelyen": {
      "lat": 43.7219,
      "lng": 77.0717,
      "hydropost_id": "kaskelyen-ustye",
      "station_id": 149
    }
  }
}